[{
    "Id": 5283,
    "Name": "ACT Disability, Aged and Carer Advocacy Services (ADACAS)",
    "Category": "All People with Disability",
    "StreetAddress": "Suite 104 Block C,,<br />Canberra Technology Park,<br />49 Phillip Ave",
    "Suburb": "WATSON ",
    "Postcode": "2602",
    "State": "ACT",
    "Email": "adacas@adacas.org.au",
    "Phone": "02 6242 5060",
    "PhoneAsE164": null,
    "Fax": "02 6242 5063",
    "Website": "www.adacas.org.au",
    "Lng": "149.1499190",
    "Lat": "-35.2406600",
    "Distance": "0m"
  }, {
    "Id": 5284,
    "Name": "Advocacy for Inclusion Inc",
    "Category": "All People with Disability",
    "StreetAddress": "Suite 2.02,<br />Griffin Centre,<br />20 Genge Street",
    "Suburb": "CANBERRA CITY",
    "Postcode": "2601",
    "State": "ACT",
    "Email": "info@advocacyforinclusion.org",
    "Phone": "02 6257 4005",
    "PhoneAsE164": null,
    "Fax": "02 6257 4006",
    "Website": "www.advocacyforinclusion.org/",
    "Lng": "149.1323186",
    "Lat": "-35.2770480",
    "Distance": "0m"
  }, {
    "Id": 5285,
    "Name": "Ability Incorporated ",
    "Category": "All People with Disability",
    "StreetAddress": "3/106 Maine Street",
    "Suburb": "ALSTONVILLE",
    "Postcode": "2477",
    "State": "NSW",
    "Email": "admin@abilityincorporated.org.au",
    "Phone": "1800 657 961",
    "PhoneAsE164": null,
    "Fax": "02 6628 8199",
    "Website": "www.abilityincorporated.org.au",
    "Lng": "153.4417461",
    "Lat": "-28.8420414",
    "Distance": "0m"
  }, {
    "Id": 5286,
    "Name": "Brain Injury Association of NSW",
    "Category": "Acquired brain injury",
    "StreetAddress": "Suite 102, Level 1,,<br />3 Carlingford Road (corner of Rawson Street)",
    "Suburb": "EPPING",
    "Postcode": "2121",
    "State": "NSW",
    "Email": "ceo@biansw.org.au",
    "Phone": "1800 802 840",
    "PhoneAsE164": null,
    "Fax": "02 9868 5619",
    "Website": "www.biansw.org.au",
    "Lng": "151.0802965",
    "Lat": "-33.7711375",
    "Distance": "0m"
  }, {
    "Id": 5287,
    "Name": "Disability Advocacy Network Wagga Wagga (Head Office)",
    "Category": "All People with Disability",
    "StreetAddress": "31 Fitzmaurice Street",
    "Suburb": "WAGGA WAGGA",
    "Postcode": "2650",
    "State": "NSW",
    "Email": "dan_inc@bigpond.com",
    "Phone": "1800 250 292",
    "PhoneAsE164": null,
    "Fax": "02 6921 7140",
    "Website": "www.dan-inc.net.au",
    "Lng": "147.3710690",
    "Lat": "-35.1077090",
    "Distance": "0m"
  }, {
    "Id": 5288,
    "Name": "Disability Advocacy Network Leeton ",
    "Category": "All People with Disability",
    "StreetAddress": "3 Wade Avenue",
    "Suburb": "LEETON",
    "Postcode": "2701",
    "State": "NSW",
    "Email": "dan_inc@bigpond.com",
    "Phone": "02 6953 3322",
    "PhoneAsE164": null,
    "Fax": "02 6921 7140",
    "Website": "www.dan-inc.net.au",
    "Lng": "147.1988053",
    "Lat": "-34.8171920",
    "Distance": "0m"
  }, {
    "Id": 5289,
    "Name": "Disability Advocacy NSW Newcastle (Head Office)",
    "Category": "All People with Disability",
    "StreetAddress": "Suite 1 Level 2,<br />\"Devonshire House\",<br />408 King Street",
    "Suburb": "NEWCASTLE WEST",
    "Postcode": "2302",
    "State": "NSW",
    "Email": "newcastle@da.org.au",
    "Phone": "1300 365 085",
    "PhoneAsE164": null,
    "Fax": "02 4927 0114",
    "Website": "www.da.org.au",
    "Lng": "151.766294",
    "Lat": "-32.92777",
    "Distance": "0m"
  }, {
    "Id": 5290,
    "Name": "Disability Advocacy NSW Armidale",
    "Category": "All People with Disability",
    "StreetAddress": "Armidale Professional Centre,<br />Cinders Lane",
    "Suburb": "ARMIDALE",
    "Postcode": "2350",
    "State": "NSW",
    "Email": "armidale@da.org.au",
    "Phone": "02 6776 6201",
    "PhoneAsE164": null,
    "Fax": "02 6766 4261",
    "Website": "www.da.org.au",
    "Lng": "151.666405",
    "Lat": "-30.509921",
    "Distance": "0m"
  }, {
    "Id": 5291,
    "Name": "Disability Advocacy NSW Coffs Harbour",
    "Category": "All People with Disability",
    "StreetAddress": "Suite 2,<br />79 West High St",
    "Suburb": "COFFS HARBOUR",
    "Postcode": "2450",
    "State": "NSW",
    "Email": "coffs.harbour@da.org.au",
    "Phone": "02 6580 2111",
    "PhoneAsE164": null,
    "Fax": "02 4927 0114",
    "Website": "www.da.org.au",
    "Lng": "153.108875190",
    "Lat": "-30.295156330",
    "Distance": "0m"
  }, {
    "Id": 5292,
    "Name": "Disability Advocacy NSW Forster / Taree",
    "Category": "All People with Disability",
    "StreetAddress": "Ornsby House,<br />24 Commerce Street",
    "Suburb": "TAREE",
    "Postcode": "2430",
    "State": "NSW",
    "Email": "taree@da.org.au",
    "Phone": "02 6580 2100",
    "PhoneAsE164": null,
    "Fax": "02 6580 2177",
    "Website": "www.da.org.au",
    "Lng": "152.455546",
    "Lat": "-31.913529",
    "Distance": "0m"
  }, {
    "Id": 5293,
    "Name": "Disability Advocacy NSW Port Macquarie",
    "Category": "All People with Disability",
    "StreetAddress": "30 Murray Street",
    "Suburb": "PORT MACQUARIE",
    "Postcode": "2444",
    "State": "NSW",
    "Email": "port.macquarie@da.org.au",
    "Phone": "02 6580 2100",
    "PhoneAsE164": null,
    "Fax": "6580 2177",
    "Website": "www.da.org.au",
    "Lng": "152.911307420",
    "Lat": "-31.430563710",
    "Distance": "0m"
  }, {
    "Id": 5294,
    "Name": "Disability Advocacy NSW Tamworth",
    "Category": "All People with Disability",
    "StreetAddress": "Suite 2, 1st Floor,<br />422 - 426 Peel Street",
    "Suburb": "TAMWORTH",
    "Postcode": "2340",
    "State": "NSW",
    "Email": "tamworth@da.org.au",
    "Phone": "02 6766 4588",
    "PhoneAsE164": null,
    "Fax": "02 6766 4261",
    "Website": "www.da.org.au",
    "Lng": "150.9318860",
    "Lat": "-31.0922430",
    "Distance": "0m"
  }, {
    "Id": 5295,
    "Name": "Illawarra Advocacy Inc",
    "Category": "All People with Disability",
    "StreetAddress": "Suite 1, Level 4,<br />166 Keira St",
    "Suburb": "\nWOLLONGONG",
    "Postcode": "2500",
    "State": "NSW",
    "Email": "admin@illawarraadvocacy.org.au",
    "Phone": "02 4229 4999",
    "PhoneAsE164": null,
    "Fax": "02 4228 0406",
    "Website": "www.illawarraadvocacy.org.au",
    "Lng": "150.8930930",
    "Lat": "-34.4235420",
    "Distance": "0m"
  }, {
    "Id": 5296,
    "Name": "Intellectual Disability Rights Service ",
    "Category": "All People with Disability",
    "StreetAddress": "Suite 2C, 199 Regent Street",
    "Suburb": "REDFERN",
    "Postcode": "2016",
    "State": "NSW",
    "Email": "info@idrs.org.au",
    "Phone": "1800 666611",
    "PhoneAsE164": null,
    "Fax": "02 9318 2887",
    "Website": "www.idrs.org.au.",
    "Lng": "151.199446",
    "Lat": "-33.894642",
    "Distance": "0m"
  }, {
    "Id": 5297,
    "Name": "Multicultural Disability Advocacy Association of NSW Inc  Granville (Head Office)",
    "Category": "People from Diverse Cultural & Ling. Backgrounds",
    "StreetAddress": "10-12 Hutchinson Street",
    "Suburb": "GRANVILLE",
    "Postcode": "2142",
    "State": "NSW",
    "Email": "mdaa@mdaa.org.au",
    "Phone": "1800 629 072",
    "PhoneAsE164": null,
    "Fax": "02 9897 9402",
    "Website": "www.mdaa.org.au",
    "Lng": "151.0077070",
    "Lat": "-33.8341030",
    "Distance": "0m"
  }, {
    "Id": 5298,
    "Name": "Multicultural Disability Advocacy Association of NSW Inc      Ultimo",
    "Category": "All People with Disability",
    "StreetAddress": "Suite 8, Level 1, 330 Wattle Street",
    "Suburb": "ULTIMO",
    "Postcode": "2007",
    "State": "NSW",
    "Email": "mdaa@mdaa.org.au",
    "Phone": "1800629072",
    "PhoneAsE164": null,
    "Fax": "02 9897 9402",
    "Website": "www.mdaa.org.au",
    "Lng": "151.1960078",
    "Lat": "-33.8793047",
    "Distance": "0m"
  }, {
    "Id": 5299,
    "Name": "Multicultural Disability Advocacy Association of NSW Inc       Bega",
    "Category": "All People with Disability",
    "StreetAddress": "101-103 Bega Street",
    "Suburb": "BEGA",
    "Postcode": "2550",
    "State": "NSW",
    "Email": "mdaa@mdaa.org.au",
    "Phone": "1800629072",
    "PhoneAsE164": null,
    "Fax": "02 9897 9402",
    "Website": "www.mdaa.org.au",
    "Lng": "149.8408690",
    "Lat": "-36.6714660",
    "Distance": "0m"
  }, {
    "Id": 5300,
    "Name": "Multicultural Disability Advocacy Association of NSW Inc       Rockdale",
    "Category": "All People with Disability",
    "StreetAddress": "Level 2, 10 King Street",
    "Suburb": "ROCKDALE",
    "Postcode": "2216",
    "State": "NSW",
    "Email": "mdaa@mdaa.org.au",
    "Phone": "1800629072",
    "PhoneAsE164": null,
    "Fax": "02 9897 9402",
    "Website": "www.mdaa.org.au",
    "Lng": "151.1388239",
    "Lat": "-33.9524735",
    "Distance": "0m"
  }, {
    "Id": 5301,
    "Name": "Newell Advocacy                        Narrabri (Head Office)",
    "Category": "All People with Disability",
    "StreetAddress": "1/63 Maitland St",
    "Suburb": "\nNARRABRI\n",
    "Postcode": "2390",
    "State": "NSW",
    "Email": "newell.narrabri@westnet.com.au",
    "Phone": "02 6792 3195",
    "PhoneAsE164": null,
    "Fax": "02 6792 4657",
    "Website": "N/A",
    "Lng": "149.7841240",
    "Lat": "-30.3279400",
    "Distance": "0m"
  }, {
    "Id": 5302,
    "Name": "Newell Advocacy                        Moree",
    "Category": "All People with Disability",
    "StreetAddress": "43 Frome St",
    "Suburb": "MOREE",
    "Postcode": "2400",
    "State": "NSW",
    "Email": "newell.narrabri@westnet.com.au",
    "Phone": "02 6752 1215",
    "PhoneAsE164": null,
    "Fax": "02 6792 4657",
    "Website": "N/A",
    "Lng": "149.8426090",
    "Lat": "-29.4645140",
    "Distance": "0m"
  }, {
    "Id": 5303,
    "Name": "Newell Advocacy                        Walgett",
    "Category": "All People with Disability",
    "StreetAddress": "40 Warrena Street",
    "Suburb": "WALGETT",
    "Postcode": "2832",
    "State": "NSW",
    "Email": "newell.narrabri@westnet.com.au",
    "Phone": "0458 923 195",
    "PhoneAsE164": null,
    "Fax": "02 6792 4657",
    "Website": "N/A",
    "Lng": "148.1177820",
    "Lat": "-30.0190400",
    "Distance": "0m"
  }, {
    "Id": 5304,
    "Name": "People with Disability Australia Inc  Sydney (Head Office)\n",
    "Category": "All People with Disability",
    "StreetAddress": "Tower 1, Lvl 10,<br />1 Lawson Square",
    "Suburb": "REDFERN",
    "Postcode": "2016",
    "State": "NSW",
    "Email": "pwd@pwd.org.au",
    "Phone": "1800 422 015",
    "PhoneAsE164": null,
    "Fax": "02 9318 1372",
    "Website": "www.pwd.org.au",
    "Lng": "151.200457",
    "Lat": "-33.891547",
    "Distance": "0m"
  }, {
    "Id": 5305,
    "Name": "People with Disability Australia Inc\nQueanbeyan ",
    "Category": "All People with Disability",
    "StreetAddress": "Shop 17 Cassidy's Arcade,<br />72 Monaro Street",
    "Suburb": "QUEANBEYAN",
    "Postcode": "2620",
    "State": "NSW",
    "Email": "pwd@pwd.org.au",
    "Phone": "1800422015",
    "PhoneAsE164": null,
    "Fax": "02 6284 2594",
    "Website": "www.pwd.org.au",
    "Lng": "149.233827",
    "Lat": "-35.353566",
    "Distance": "0m"
  }, {
    "Id": 5306,
    "Name": "People with Disability Australia Inc Bowral",
    "Category": "All People with Disability",
    "StreetAddress": "2 Holmhale Street",
    "Suburb": "BOWRAL",
    "Postcode": "2576",
    "State": "NSW",
    "Email": "pwd@pwd.org.au",
    "Phone": "1800422015",
    "PhoneAsE164": null,
    "Fax": "02 4862 4306",
    "Website": "www.pwd.org.au",
    "Lng": "150.418296930",
    "Lat": "-34.483473570",
    "Distance": "0m"
  }, {
    "Id": 5307,
    "Name": "People with Disability Australia Inc\nSutherland ",
    "Category": "All People with Disability",
    "StreetAddress": "Office 2, Stapleton Community Centre,<br />3A Stapleton Avenue",
    "Suburb": "SUTHERLAND",
    "Postcode": "2232",
    "State": "NSW",
    "Email": "pwd@pwd.org.au",
    "Phone": "1800422015",
    "PhoneAsE164": null,
    "Fax": "02 8539 7293",
    "Website": "www.pwd.org.au",
    "Lng": "151.0613920",
    "Lat": "-34.0308570",
    "Distance": "0m"
  }, {
    "Id": 5308,
    "Name": "People with Disability Australia Inc Bundaberg",
    "Category": "All People with Disability",
    "StreetAddress": "Unit 14 / 20B Quay Street",
    "Suburb": "BUNDABERG",
    "Postcode": "4670",
    "State": "QLD",
    "Email": "pwd@pwd.org.au",
    "Phone": "1800422015",
    "PhoneAsE164": null,
    "Fax": "07 4151 0004",
    "Website": "www.pwd.org.au",
    "Lng": "152.3535580",
    "Lat": "-24.8638850",
    "Distance": "0m"
  }, {
    "Id": 5309,
    "Name": "People with Disability Australia Inc Hervey Bay",
    "Category": "All People with Disability",
    "StreetAddress": "Suite 16D, Level 2, The Signature Building,<br />19 - 21 Torquay Road",
    "Suburb": "HERVEY BAY",
    "Postcode": "4655",
    "State": "QLD",
    "Email": "pwd@pwd.org.au",
    "Phone": "1800422015",
    "PhoneAsE164": null,
    "Fax": "07 4325 4808",
    "Website": "www.pwd.org.au",
    "Lng": "152.841817",
    "Lat": "-25.282498",
    "Distance": "0m"
  }, {
    "Id": 5310,
    "Name": "People with Disability Australia Inc  Kingston",
    "Category": "All People with Disability",
    "StreetAddress": "Shop 5, 76-86 Queens Road",
    "Suburb": "KINGSTON",
    "Postcode": "4114",
    "State": "QLD",
    "Email": "pwd@pwd.org.au",
    "Phone": "1800422015",
    "PhoneAsE164": null,
    "Fax": "07 3209 4787",
    "Website": "www.pwd.org.au",
    "Lng": "153.1192110",
    "Lat": "-27.6503090",
    "Distance": "0m"
  }, {
    "Id": 5311,
    "Name": "People with Disability Australia Inc Mt Isa",
    "Category": "All People with Disability",
    "StreetAddress": "Unit 3 / 24 West Street",
    "Suburb": "MT ISA",
    "Postcode": "4825",
    "State": "QLD",
    "Email": "pwd@pwd.org.au",
    "Phone": "1800422015",
    "PhoneAsE164": null,
    "Fax": "07 4743 8768",
    "Website": "www.pwd.org.au",
    "Lng": "139.4908410",
    "Lat": "-20.7255640",
    "Distance": "0m"
  }, {
    "Id": 5312,
    "Name": "People with Disability Australia Inc Buddina",
    "Category": "All People with Disability",
    "StreetAddress": "Unit 6, 9 Nicklin Way",
    "Suburb": "MINYAMA",
    "Postcode": "4575",
    "State": "QLD",
    "Email": "pwd@pwd.org.au",
    "Phone": "1800422015",
    "PhoneAsE164": null,
    "Fax": "07 5477 5324",
    "Website": "www.pwd.org.au",
    "Lng": "153.1253220",
    "Lat": "-26.7006980",
    "Distance": "0m"
  }, {
    "Id": 5313,
    "Name": "Self Advocacy (Sydney) Incorporated",
    "Category": "Intellectual disability",
    "StreetAddress": "106b Level 1,<br />30-32 Campbell Street",
    "Suburb": "BLACKTOWN",
    "Postcode": "2148",
    "State": "NSW",
    "Email": "info@sasinc.com.au",
    "Phone": "02 9622 3005",
    "PhoneAsE164": null,
    "Fax": "02 9622 6030",
    "Website": "www.sasinc.com.au",
    "Lng": "150.909747",
    "Lat": "-33.771467",
    "Distance": "0m"
  }, {
    "Id": 5314,
    "Name": "Side by Side Advocacy Inc",
    "Category": "Intellectual disability",
    "StreetAddress": "Shop 1, 30-32 Herbert St",
    "Suburb": "WEST RYDE",
    "Postcode": "2114",
    "State": "NSW",
    "Email": "eo@sidebysideadvocacy.org.au",
    "Phone": "02 9808 5500",
    "PhoneAsE164": null,
    "Fax": "02 9807 6960",
    "Website": "sidebyside.org.au/",
    "Lng": "151.0918460",
    "Lat": "-33.8076020",
    "Distance": "0m"
  }, {
    "Id": 5315,
    "Name": "Spinal Cord Injuries Australia Ltd",
    "Category": "All People with Disability",
    "StreetAddress": "1 Jennifer Street",
    "Suburb": "LITTLE BAY",
    "Postcode": "2036",
    "State": "NSW",
    "Email": "office@scia.org.au",
    "Phone": "1800 819 775",
    "PhoneAsE164": null,
    "Fax": "02 9661 9598",
    "Website": "www.scia.org.au",
    "Lng": "151.2425130",
    "Lat": "-33.9838770",
    "Distance": "0m"
  }, {
    "Id": 5316,
    "Name": "Indigenous Disability Advocacy Service (IDAS)",
    "Category": "Aboriginal and Torres Strait Islander Services",
    "StreetAddress": "127 Lethbridge Street",
    "Suburb": "PENRITH",
    "Postcode": "2750",
    "State": "NSW",
    "Email": "idas@idas.org.au",
    "Phone": "02 4722 3524",
    "PhoneAsE164": null,
    "Fax": "02 4722 6126",
    "Website": "www.idas.org.au/",
    "Lng": "150.7000710",
    "Lat": "-33.7560460",
    "Distance": "0m"
  }, {
    "Id": 5317,
    "Name": "Family Advocacy",
    "Category": "People with  developmental disability",
    "StreetAddress": "Suite 305,<br />16-18 Cambridge Street",
    "Suburb": "EPPING",
    "Postcode": "2121",
    "State": "NSW",
    "Email": "communications@family-advocacy.com",
    "Phone": "1800 620 588",
    "PhoneAsE164": null,
    "Fax": "02 9869 0722",
    "Website": "www.family-advocacy.com/",
    "Lng": "151.0822680",
    "Lat": "-33.7700180",
    "Distance": "0m"
  }, {
    "Id": 5318,
    "Name": "Darwin Community Legal Service Inc                                   Darwin (Head Office)",
    "Category": "All People with Disability",
    "StreetAddress": "8 Manton Street",
    "Suburb": "DARWIN",
    "Postcode": "0810",
    "State": "NT",
    "Email": "info@dcls.org.au",
    "Phone": "1800 812 953",
    "PhoneAsE164": null,
    "Fax": "08 8982 1112",
    "Website": "www.dcls.org.au",
    "Lng": "130.8436810",
    "Lat": "-12.4593810",
    "Distance": "0m"
  }, {
    "Id": 5319,
    "Name": "Darwin Community Legal Service Inc                                    Nhulunbuy",
    "Category": "All People with Disability",
    "StreetAddress": "Lot 6 Chesterfield Circuit",
    "Suburb": "NHULUNBUY",
    "Postcode": "0880",
    "State": "NT",
    "Email": "info@dcls.org.au",
    "Phone": "1800 015 593 08",
    "PhoneAsE164": null,
    "Fax": "08 89878408",
    "Website": "www.dcls.org.au",
    "Lng": "136.7803830",
    "Lat": "-12.1857450",
    "Distance": "0m"
  }, {
    "Id": 5320,
    "Name": "Disability Advocacy Service Inc.",
    "Category": "All People with Disability",
    "StreetAddress": "63 Railway Terrace",
    "Suburb": "ALICE SPRINGS ",
    "Postcode": "0870",
    "State": "NT",
    "Email": "manager@das.org.au",
    "Phone": "08 8953 1422",
    "PhoneAsE164": null,
    "Fax": "08 8953 0471",
    "Website": "www.das.org.au/",
    "Lng": "133.8776148",
    "Lat": "-23.7005103",
    "Distance": "0m"
  }, {
    "Id": 5321,
    "Name": "NPY Women's Council Aboriginal Corporation",
    "Category": "Aboriginal and Torres Strait Islander Services",
    "StreetAddress": "3 Wilkinson St",
    "Suburb": "ALICE SPRINGS",
    "Postcode": "0870",
    "State": "NT",
    "Email": "enquiries@npywc.org.au",
    "Phone": "08 8958 2345",
    "PhoneAsE164": null,
    "Fax": "08 8952 3742",
    "Website": "www.npywc.org.au/",
    "Lng": "133.8704880",
    "Lat": "-23.7009220",
    "Distance": "0m"
  }, {
    "Id": 5322,
    "Name": "Independent Advocacy in the Tropics Inc",
    "Category": "All People with Disability",
    "StreetAddress": "2 / 179-181 Ross River Road",
    "Suburb": "MUNDINGBURRA",
    "Postcode": "4812",
    "State": "QLD",
    "Email": "admin@iat.org.au",
    "Phone": "1800 887 688",
    "PhoneAsE164": null,
    "Fax": "07 4725 6106",
    "Website": "www.independentadvocacy.org.au",
    "Lng": "146.7785890",
    "Lat": "-19.2953280",
    "Distance": "0m"
  }, {
    "Id": 5323,
    "Name": "Queensland Advocacy Inc",
    "Category": "All People with Disability",
    "StreetAddress": "2nd Floor South Central,<br />43 Peel Street",
    "Suburb": "SOUTH BRISBANE",
    "Postcode": "4101",
    "State": "QLD",
    "Email": "qai@qai.org.au",
    "Phone": "1300 130 582",
    "PhoneAsE164": null,
    "Fax": "07 3844 4220",
    "Website": "www.qai.org.au",
    "Lng": "153.015133",
    "Lat": "-27.473291",
    "Distance": "0m"
  }, {
    "Id": 5324,
    "Name": "Rights In Action Inc",
    "Category": "All People with Disability",
    "StreetAddress": "Ground Floor,<br />Professional House,<br />88 Abbott Street",
    "Suburb": "CAIRNS",
    "Postcode": "4870",
    "State": "QLD",
    "Email": "info@rightsinaction.org",
    "Phone": "07 4031 7377",
    "PhoneAsE164": null,
    "Fax": "07 4031 7383",
    "Website": "www.rightsinaction.org",
    "Lng": "145.7752200",
    "Lat": "-16.9184080",
    "Distance": "0m"
  }, {
    "Id": 5325,
    "Name": "Speaking Up For You Inc",
    "Category": "All People with Disability",
    "StreetAddress": "Unit F2, 1st Floor,<br />The Precinct,<br />12 Browning Street",
    "Suburb": "WEST END",
    "Postcode": "4101",
    "State": "QLD",
    "Email": "sufy@sufy.org.au",
    "Phone": "07 3255 1244",
    "PhoneAsE164": null,
    "Fax": "07 3255 1266",
    "Website": "www.sufy.org.au",
    "Lng": "153.0134030",
    "Lat": "-27.4776390",
    "Distance": "0m"
  }, {
    "Id": 5326,
    "Name": "Sunshine Coast Citizen Advocacy Programme Inc",
    "Category": "Intellectual disability",
    "StreetAddress": "Unit 12,<br />354 Mons Road",
    "Suburb": "FOREST GLEN",
    "Postcode": "4556",
    "State": "QLD",
    "Email": "sunshinecoast@citizenadvocacy.com",
    "Phone": "07 5453 7274",
    "PhoneAsE164": null,
    "Fax": null,
    "Website": "www.citizenadvocacy.com",
    "Lng": "153.005023",
    "Lat": "-26.686769",
    "Distance": "0m"
  }, {
    "Id": 5327,
    "Name": "Brain Injury SA",
    "Category": "Acquired brain injury",
    "StreetAddress": "70 Light Square",
    "Suburb": "ADELAIDE",
    "Postcode": "5000",
    "State": "SA",
    "Email": "info@binsa.org",
    "Phone": "1300 733 049",
    "PhoneAsE164": null,
    "Fax": "08 8211 8164",
    "Website": "http://braininjurysa.org.au/",
    "Lng": "138.5946830",
    "Lat": "-34.9255400",
    "Distance": "0m"
  }, {
    "Id": 5328,
    "Name": "Citizen Advocacy South Australia Incorporated",
    "Category": "Intellectual disability",
    "StreetAddress": "20 Myers Street",
    "Suburb": "ADELAIDE",
    "Postcode": "5000",
    "State": "SA",
    "Email": "office.citizenadvocacy@gmail.com",
    "Phone": "08 8410 6644",
    "PhoneAsE164": null,
    "Fax": "",
    "Website": "www.citizenadvocacysa.com.au",
    "Lng": "138.5989080",
    "Lat": "-34.9336330",
    "Distance": "0m"
  }, {
    "Id": 5329,
    "Name": "Disability Advocacy and Complaints Service of South Australia Inc",
    "Category": "All People with Disability",
    "StreetAddress": "29 High Street",
    "Suburb": "Kensington",
    "Postcode": "5068",
    "State": "SA",
    "Email": "admin@dacssa.org.au",
    "Phone": "08 7122 6030",
    "PhoneAsE164": null,
    "Fax": "08 8332 5112",
    "Website": "www.dacssa.org.au",
    "Lng": "138.642458",
    "Lat": "-34.922121",
    "Distance": "0m"
  }, {
    "Id": 5330,
    "Name": "Advocacy for Disability Access and Inclusion Inc (Central Office)",
    "Category": "All People with Disability",
    "StreetAddress": "149 Currie Street",
    "Suburb": "ADELAIDE",
    "Postcode": "5000",
    "State": "SA",
    "Email": "admin@advocacyfordisability.org.au",
    "Phone": "08 8340 4450",
    "PhoneAsE164": null,
    "Fax": "08 8340 4452",
    "Website": "www.advocacyfordisability.org.au",
    "Lng": "138.5923041",
    "Lat": "-34.9249035",
    "Distance": "0m"
  }, {
    "Id": 5331,
    "Name": "Advocacy for Disability Access and Inclusion Inc (Clare Office)",
    "Category": "All People with Disability",
    "StreetAddress": "31 Old North Road",
    "Suburb": "CLARE",
    "Postcode": "5453",
    "State": "SA",
    "Email": "afd1@advocacyfordisability.org.au",
    "Phone": "1800 856 464",
    "PhoneAsE164": null,
    "Fax": "",
    "Website": "www.advocacyfordisability.org.au",
    "Lng": "138.6130850",
    "Lat": "-33.8333950",
    "Distance": "0m"
  }, {
    "Id": 5332,
    "Name": "Independent Advocacy SA Incorporated",
    "Category": "Intellectual disability",
    "StreetAddress": "99 Frome Street",
    "Suburb": "ADELAIDE",
    "Postcode": "5000",
    "State": "SA",
    "Email": "indepadv@internode.on.net",
    "Phone": "1800 999 884",
    "PhoneAsE164": null,
    "Fax": "08 8232 6255",
    "Website": "www.independentadvocacysa.org.au/",
    "Lng": "138.6077410",
    "Lat": "-34.9247280",
    "Distance": "0m"
  }, {
    "Id": 5333,
    "Name": "Disability Rights Advocacy Service Incorporated           Adelaide (Head Office)",
    "Category": "People from Diverse Cultural & Ling. Backgrounds",
    "StreetAddress": "4 / 80 Henley Beach Road",
    "Suburb": "MILE END",
    "Postcode": "5031",
    "State": "SA",
    "Email": "admin@dras.com.au",
    "Phone": "08 83519500",
    "PhoneAsE164": null,
    "Fax": "08 8152 0396",
    "Website": "www.dras.com.au",
    "Lng": "138.5735140",
    "Lat": "-34.9231620",
    "Distance": "0m"
  }, {
    "Id": 5334,
    "Name": "Disability Rights Advocacy Service Incorporated\nBerri (Riverland Advocacy Service)",
    "Category": "All People with Disability",
    "StreetAddress": "2A Ahern Street",
    "Suburb": "BERRI",
    "Postcode": "5343",
    "State": "SA",
    "Email": "gmcnaughton@dras.com.au",
    "Phone": "08 8582 2422",
    "PhoneAsE164": null,
    "Fax": "08 8582 2411",
    "Website": "www.riverlandadvocacy.org.au/",
    "Lng": "140.6033410",
    "Lat": "-34.2852450",
    "Distance": "0m"
  }, {
    "Id": 5335,
    "Name": "Disability Rights Advocacy Service Incorporated Mount Gambier (South East Disability Advocacy Service)",
    "Category": "All People with Disability",
    "StreetAddress": "71 Suttontown Road",
    "Suburb": "MOUNT GAMBIER",
    "Postcode": "5290",
    "State": "SA",
    "Email": "dshipton@dras.com.au",
    "Phone": "08 8723 6002",
    "PhoneAsE164": null,
    "Fax": "08 8725 8009",
    "Website": "www.sedas.org.au",
    "Lng": "140.7681320",
    "Lat": "-37.8105550",
    "Distance": "0m"
  }, {
    "Id": 5336,
    "Name": "Advocacy Tasmania (Hobart Office)",
    "Category": "All People with Disability",
    "StreetAddress": "Suite 6 Mayfair Plaza,<br />236 Sandy Bay Road",
    "Suburb": "SANDY BAY",
    "Postcode": "7005",
    "State": "TAS",
    "Email": "advocacy@advocacytasmania.org.au",
    "Phone": "1800 005 131",
    "PhoneAsE164": null,
    "Fax": "03 6224 2411",
    "Website": "www.advocacytasmania.org.au",
    "Lng": "147.3281358",
    "Lat": "-42.8956876",
    "Distance": "0m"
  }, {
    "Id": 5337,
    "Name": "Citizen Advocacy Launceston Region Incorporated",
    "Category": "Intellectual disability",
    "StreetAddress": "1 / 23 Brisbane Street",
    "Suburb": "LAUNCESTON",
    "Postcode": "7250",
    "State": "TAS",
    "Email": "ca.lton@bigpond.net.au",
    "Phone": "03 6331 2177",
    "PhoneAsE164": null,
    "Fax": "03 6334 3571",
    "Website": "www.citizenadvocacylton.org.au",
    "Lng": "147.1438290",
    "Lat": "-41.4346650",
    "Distance": "0m"
  }, {
    "Id": 5338,
    "Name": "Speak Out Association of Tasmania Hobart (Head Office)",
    "Category": "All People with Disability",
    "StreetAddress": "83A Melville Street",
    "Suburb": "HOBART",
    "Postcode": "7000",
    "State": "TAS",
    "Email": "admin@speakoutadvocacy.org",
    "Phone": "03 6231 2344",
    "PhoneAsE164": null,
    "Fax": "03 6231 2207",
    "Website": "www.speakoutadvocacy.org/",
    "Lng": "147.3222852",
    "Lat": "-42.8818256",
    "Distance": "0m"
  }, {
    "Id": 5339,
    "Name": "Speak Out Association of Tasmania                                      Launceston                                      ",
    "Category": "All People with Disability",
    "StreetAddress": "59d Amy Road",
    "Suburb": "NEWSTEAD",
    "Postcode": "7250",
    "State": "TAS",
    "Email": "admin@speakoutadvocacy.org",
    "Phone": "03 6343 2022",
    "PhoneAsE164": null,
    "Fax": "03 6343 0222",
    "Website": "www.speakoutadvocacy.org/",
    "Lng": "147.1601110",
    "Lat": "-41.4521720",
    "Distance": "0m"
  }, {
    "Id": 5340,
    "Name": "Speak Out Association of Tasmania                                      Burnie",
    "Category": "All People with Disability",
    "StreetAddress": "2 Spring Street",
    "Suburb": "BURNIE",
    "Postcode": "7320",
    "State": "TAS",
    "Email": "admin@speakoutadvocacy.org",
    "Phone": "03 6431 9333",
    "PhoneAsE164": null,
    "Fax": "03 6431 9333",
    "Website": "www.speakoutadvocacy.org/",
    "Lng": "145.9065350",
    "Lat": "-41.0558602",
    "Distance": "0m"
  }, {
    "Id": 5341,
    "Name": "Action for More Independence & Dignity in Accommodation Inc",
    "Category": "Intellectual disability",
    "StreetAddress": "1st Floor, Suite 1.11, Ross House,<br />247 Flinders Lane",
    "Suburb": "MELBOURNE",
    "Postcode": "3000",
    "State": "VIC",
    "Email": "amida@amida.org.au",
    "Phone": "03 9650 2722",
    "PhoneAsE164": null,
    "Fax": "03 9654 8575",
    "Website": "www.amida.org.au",
    "Lng": "144.9639370",
    "Lat": "-37.8152065",
    "Distance": "0m"
  }, {
    "Id": 5342,
    "Name": "Action on Disability within Ethnic Communities (ADEC) ",
    "Category": "People from Diverse Cultural & Ling. Backgrounds",
    "StreetAddress": "175 Plenty Road",
    "Suburb": "PRESTON",
    "Postcode": "3072",
    "State": "VIC",
    "Email": "info@adec.org.au",
    "Phone": "1800 626 078",
    "PhoneAsE164": null,
    "Fax": "03 9480 3444",
    "Website": "www.adec.org.au",
    "Lng": "145.0057669",
    "Lat": "-37.7461650",
    "Distance": "0m"
  }, {
    "Id": 5343,
    "Name": "AED Legal Centre",
    "Category": "All People with Disability",
    "StreetAddress": "Suite 4, Level 5, 276 Flinders Street",
    "Suburb": "MELBOURNE",
    "Postcode": "3000",
    "State": "VIC",
    "Email": "noni.lord@aed.org.au",
    "Phone": "03 9639 4333",
    "PhoneAsE164": null,
    "Fax": "03 9650 2833",
    "Website": "www.aed.org.au",
    "Lng": "144.965198110",
    "Lat": "-37.817894550",
    "Distance": "0m"
  }, {
    "Id": 5344,
    "Name": "Citizen Advocacy Sunbury and Districts Inc",
    "Category": "Intellectual disability",
    "StreetAddress": "Office 5,<br />36 Macedon Street",
    "Suburb": "SUNBURY",
    "Postcode": "3429",
    "State": "VIC",
    "Email": "dabela@citizenadvocacysunbury.com.au",
    "Phone": "03 9744 7378",
    "PhoneAsE164": null,
    "Fax": "03 9740 8535",
    "Website": "www.casunbury.net",
    "Lng": "144.7349191",
    "Lat": "-37.5800890",
    "Distance": "0m"
  }, {
    "Id": 5345,
    "Name": "Colac Otway Region Advocacy Service",
    "Category": "All People with Disability",
    "StreetAddress": "50A Rae Street",
    "Suburb": "COLAC",
    "Postcode": "3250",
    "State": "VIC",
    "Email": "pgbrady@bigpond.net.au",
    "Phone": "03 5232 1009",
    "PhoneAsE164": null,
    "Fax": "03 5232 1291",
    "Website": "www.coras.com.au",
    "Lng": "143.5900450",
    "Lat": "-38.3423100",
    "Distance": "0m"
  }, {
    "Id": 5346,
    "Name": "Disability Advocacy and Information Service Inc (Head Office)",
    "Category": "All People with Disability",
    "StreetAddress": "132 Melbourne Road",
    "Suburb": "WODONGA",
    "Postcode": "3690",
    "State": "VIC",
    "Email": "admin@dais.org.au",
    "Phone": "1300 886 388",
    "PhoneAsE164": null,
    "Fax": "02 6024 6809",
    "Website": "www.dais.org.au",
    "Lng": "146.876516",
    "Lat": "-36.118333",
    "Distance": "0m"
  }, {
    "Id": 5347,
    "Name": "Disability Justice Advocacy Inc",
    "Category": "All People with Disability",
    "StreetAddress": "Unit 2, 28A Albert Street",
    "Suburb": "\nPRESTON",
    "Postcode": "3072",
    "State": "VIC",
    "Email": "info@justadvocacy.com",
    "Phone": "03 9474 0077",
    "PhoneAsE164": null,
    "Fax": "03 9489 2988",
    "Website": "www.justadvocacy.com/",
    "Lng": "145.0213710",
    "Lat": "-37.7503158",
    "Distance": "0m"
  }, {
    "Id": 5348,
    "Name": "Gippsland Disability Advocacy Inc",
    "Category": "All People with Disability",
    "StreetAddress": "8 Hopetoun Avenue",
    "Suburb": "MORWELL",
    "Postcode": "3840",
    "State": "VIC",
    "Email": "admin@gdia.org.au",
    "Phone": "03 5133 9440",
    "PhoneAsE164": null,
    "Fax": "03 5133 9897",
    "Website": "www.gdai.org.au",
    "Lng": "146.4027730",
    "Lat": "-38.2371930",
    "Distance": "0m"
  }, {
    "Id": 5349,
    "Name": "Grampians disAbility Advocacy Association Inc                            Ararat (Head Office)",
    "Category": "All People with Disability",
    "StreetAddress": "Shop 2, 32 Tucson Street",
    "Suburb": "ARARAT",
    "Postcode": "3377",
    "State": "VIC",
    "Email": "asas@netconnect.com.au",
    "Phone": "1800 552 272",
    "PhoneAsE164": null,
    "Fax": "03 5352 2733",
    "Website": "www.connectingcare.com/Home/Provider?region=vicpcp&regionid=15&siteId=121",
    "Lng": "142.931415",
    "Lat": "-37.27938",
    "Distance": "0m"
  }, {
    "Id": 5350,
    "Name": "Grampians disAbility Advocacy Association Inc                            Clunes",
    "Category": "All People with Disability",
    "StreetAddress": "Hepburn Health Services, Clunes Community Health, 69 Service Street",
    "Suburb": "CLUNES",
    "Postcode": "3370",
    "State": "VIC",
    "Email": "asas@netconnect.com.au",
    "Phone": "1800 552 272",
    "PhoneAsE164": null,
    "Fax": "03 5352 2733",
    "Website": "www.connectingcare.com/Home/Provider?region=vicpcp&regionid=15&siteId=121",
    "Lng": "143.783084",
    "Lat": "-37.302086",
    "Distance": "0m"
  }, {
    "Id": 5351,
    "Name": "Grampians disAbility Advocacy Association Inc                            Darley",
    "Category": "All People with Disability",
    "StreetAddress": "Assert 4 All, Darley Civic & Community Hub 182 Halletts Way",
    "Suburb": "DARLEY",
    "Postcode": "3340",
    "State": "VIC",
    "Email": "asas@netconnect.com.au",
    "Phone": "1300 942 773",
    "PhoneAsE164": null,
    "Fax": "03 5352 2733",
    "Website": "www.connectingcare.com/Home/Provider?region=vicpcp&regionid=15&siteId=121",
    "Lng": "144.423037",
    "Lat": "-37.651771",
    "Distance": "0m"
  }, {
    "Id": 5352,
    "Name": "Grampians disAbility Advocacy Association Inc                            Geelong",
    "Category": "All People with Disability",
    "StreetAddress": "Assert 4 All, 48 McKillop St",
    "Suburb": "GEELONG",
    "Postcode": "3220",
    "State": "VIC",
    "Email": "asas@netconnect.com.au",
    "Phone": "1300 942 773",
    "PhoneAsE164": null,
    "Fax": "03 5352 2733",
    "Website": "www.connectingcare.com/Home/Provider?region=vicpcp&regionid=15&siteId=121",
    "Lng": "144.3564900",
    "Lat": "-38.1532670",
    "Distance": "0m"
  }, {
    "Id": 5353,
    "Name": "Grampians disAbility Advocacy Association Inc                            Daylesford",
    "Category": "All People with Disability",
    "StreetAddress": "Hepburn Health Services, Daylesford Community Health, 13 Hospital Street",
    "Suburb": "DAYLESFORD",
    "Postcode": "3460",
    "State": "VIC",
    "Email": "asas@netconnect.com.au",
    "Phone": "1800 522 272",
    "PhoneAsE164": null,
    "Fax": "03 5352 2733",
    "Website": "www.connectingcare.com/Home/Provider?region=vicpcp&regionid=15&siteId=121",
    "Lng": "144.146604",
    "Lat": "-37.337513",
    "Distance": "0m"
  }, {
    "Id": 5354,
    "Name": "Grampians disAbility Advocacy Association Inc                            Stawell",
    "Category": "All People with Disability",
    "StreetAddress": "Community Axis, 111 Main Street",
    "Suburb": "STAWELL",
    "Postcode": "3380",
    "State": "VIC",
    "Email": "asas@netconnect.com.au",
    "Phone": "1800 522 272",
    "PhoneAsE164": null,
    "Fax": "03 5352 2733",
    "Website": "www.connectingcare.com/Home/Provider?region=vicpcp&regionid=15&siteId=121",
    "Lng": "142.780743",
    "Lat": "-37.055897",
    "Distance": "0m"
  }, {
    "Id": 5355,
    "Name": "Leadership Plus Inc.                     Melbourne (Head Office)",
    "Category": "Acquired brain injury",
    "StreetAddress": "Milton House,<br />25 Flinders Lane",
    "Suburb": "MELBOURNE",
    "Postcode": "3000",
    "State": "VIC",
    "Email": "admin@leadershipplus.com",
    "Phone": "03 9489 2999",
    "PhoneAsE164": null,
    "Fax": "03 9489 2988",
    "Website": "www.leadershipplus.com",
    "Lng": "144.973528130",
    "Lat": "-37.814683940",
    "Distance": "0m"
  }, {
    "Id": 5356,
    "Name": "Leadership Plus Inc.                     Dandenong",
    "Category": "People from Diverse Cultural & Ling. Backgrounds",
    "StreetAddress": "Dandenong Community Advisory Bureau,<br />186 Foster Street",
    "Suburb": "DANDENONG",
    "Postcode": "3175",
    "State": "VIC",
    "Email": "admin@leadershipplus.com",
    "Phone": "03 9489 2999",
    "PhoneAsE164": null,
    "Fax": "03 9489 2988",
    "Website": "www.leadershipplus.com",
    "Lng": "145.2209105",
    "Lat": "-37.9880351",
    "Distance": "0m"
  }, {
    "Id": 5357,
    "Name": "Melbourne East Disability Advocacy",
    "Category": "Intellectual disability",
    "StreetAddress": "Level 1, 79 Mahoney's Rd",
    "Suburb": "FOREST HILL ",
    "Postcode": "3131",
    "State": "VIC",
    "Email": "office@meda.org.au",
    "Phone": "03 9808 8633",
    "PhoneAsE164": null,
    "Fax": "03 9808 8633",
    "Website": "www.meda.org.au/",
    "Lng": "145.166266",
    "Lat": "-37.836432",
    "Distance": "0m"
  }, {
    "Id": 5358,
    "Name": "North East Citizen Advocacy Inc",
    "Category": "Intellectual disability",
    "StreetAddress": "56 Gabonia Avenue",
    "Suburb": "WATSONIA",
    "Postcode": "3087",
    "State": "VIC",
    "Email": "neca@citizenadvocacy.com.au",
    "Phone": "03 8407 3684",
    "PhoneAsE164": null,
    "Fax": "03 8407 3684",
    "Website": "www.citizenadvocacy.com.au",
    "Lng": "145.0868480",
    "Lat": "-37.7154730",
    "Distance": "0m"
  }, {
    "Id": 5359,
    "Name": "Rights Information and Advocacy Centre Shepparton (Head Office)",
    "Category": "All People with Disability",
    "StreetAddress": "190 Benalla Road",
    "Suburb": "SHEPPARTON",
    "Postcode": "3630",
    "State": "VIC",
    "Email": "enquiry@riac.org.au",
    "Phone": "1800 221 944",
    "PhoneAsE164": null,
    "Fax": "03 5831 1610",
    "Website": "www.riac.org.au",
    "Lng": "145.4275280",
    "Lat": "-36.3877910",
    "Distance": "0m"
  }, {
    "Id": 5360,
    "Name": "Rights Information and Advocacy Centre Bendigo ",
    "Category": "All People with Disability",
    "StreetAddress": "3/40 Bridge Street",
    "Suburb": "BENDIGO",
    "Postcode": "3550",
    "State": "VIC",
    "Email": "enquiry@riac.org.au",
    "Phone": "1800 221 944",
    "PhoneAsE164": null,
    "Fax": "03 5831 1610",
    "Website": "www.riac.org.au",
    "Lng": "144.283944680",
    "Lat": "-36.752926400",
    "Distance": "0m"
  }, {
    "Id": 5361,
    "Name": "Rights Information and Advocacy Centre Geelong ",
    "Category": "All People with Disability",
    "StreetAddress": "21 Regent Street",
    "Suburb": "BELMONT",
    "Postcode": "3216",
    "State": "VIC",
    "Email": "enquiry@riac.org.au",
    "Phone": "1800 221 944",
    "PhoneAsE164": null,
    "Fax": "03 5831 1610",
    "Website": "www.riac.org.au",
    "Lng": "144.345544",
    "Lat": "-38.174363",
    "Distance": "0m"
  }, {
    "Id": 5362,
    "Name": "Rights Information and Advocacy Centre Mildura ",
    "Category": "All People with Disability",
    "StreetAddress": "148 Lime Avenue",
    "Suburb": "MILDURA",
    "Postcode": "3500",
    "State": "VIC",
    "Email": "enquiry@riac.org.au",
    "Phone": "1800 221 944",
    "PhoneAsE164": null,
    "Fax": "03 5831 1610",
    "Website": "www.riac.org.au",
    "Lng": "142.1562410",
    "Lat": "-34.1873670",
    "Distance": "0m"
  }, {
    "Id": 5363,
    "Name": "Southern Disability Advocacy Incorporated Sandringham (Head Office)",
    "Category": "All People with Disability",
    "StreetAddress": "31 Abbott Street",
    "Suburb": "SANDRINGHAM",
    "Postcode": "3191",
    "State": "VIC",
    "Email": "info@southernda.org.au",
    "Phone": "03 9533 5977",
    "PhoneAsE164": null,
    "Fax": "03 9923 6173",
    "Website": "www.southernda.org.au",
    "Lng": "145.003908",
    "Lat": "-37.948510",
    "Distance": "0m"
  }, {
    "Id": 5364,
    "Name": "Southern Disability Advocacy Incorporated                                 Mornington",
    "Category": "All People with Disability",
    "StreetAddress": "320 Main Street",
    "Suburb": "MORNINGTON",
    "Postcode": "3931",
    "State": "VIC",
    "Email": "info@southernda.org.au",
    "Phone": "03 9533 5977",
    "PhoneAsE164": null,
    "Fax": "03 9923 6173",
    "Website": "www.southernda.org.au",
    "Lng": "145.0424577",
    "Lat": "-38.2253378",
    "Distance": "0m"
  }, {
    "Id": 5365,
    "Name": "Southwest Advocacy Association Inc",
    "Category": "All People with Disability",
    "StreetAddress": "4 / 50 Kepler Street",
    "Suburb": "WARRNAMBOOL",
    "Postcode": "3280",
    "State": "VIC",
    "Email": "swadvocacy@bigpond.com",
    "Phone": "03 5561 4584",
    "PhoneAsE164": null,
    "Fax": "03 5561 4371",
    "Website": "www.southwestadvocacy.org.au/swaa",
    "Lng": "142.4811340",
    "Lat": "-38.3834550",
    "Distance": "0m"
  }, {
    "Id": 5366,
    "Name": "Victorian Mental Illness Awareness Council Inc",
    "Category": "Intellectual disability",
    "StreetAddress": "1 / 22 Aintree Street",
    "Suburb": "BRUNSWICK",
    "Postcode": "3057",
    "State": "VIC",
    "Email": "director@vmiac.org.au",
    "Phone": "03 9388 9668",
    "PhoneAsE164": null,
    "Fax": "03 9388 1445",
    "Website": "www.vmiac.org.au",
    "Lng": "144.9792600",
    "Lat": "-37.7693510",
    "Distance": "0m"
  }, {
    "Id": 5367,
    "Name": "Villamanta Disability Rights Legal Service Inc",
    "Category": "Intellectual disability",
    "StreetAddress": "44 Bellerine Street",
    "Suburb": "GEELONG",
    "Postcode": "3220",
    "State": "VIC",
    "Email": "legal@villamanta.org.au",
    "Phone": "1800 014 111",
    "PhoneAsE164": null,
    "Fax": "03 5229 3354",
    "Website": "www.villamanta.org.au",
    "Lng": "144.3646970",
    "Lat": "-38.1500960",
    "Distance": "0m"
  }, {
    "Id": 5368,
    "Name": "Advocacy South West (Inc)",
    "Category": "All People with Disability",
    "StreetAddress": "99 Victoria Street",
    "Suburb": "BUNBURY",
    "Postcode": "6230",
    "State": "WA",
    "Email": "admin@asw.org.au",
    "Phone": "08 9791 3293",
    "PhoneAsE164": null,
    "Fax": "08 9791 3361",
    "Website": "www.advocacysouthwest.org.au",
    "Lng": "115.6366380",
    "Lat": "-33.3240980",
    "Distance": "0m"
  }, {
    "Id": 5369,
    "Name": "Personal Advocacy Service",
    "Category": "Intellectual disability",
    "StreetAddress": "28 Holdhurst Way",
    "Suburb": "MORLEY",
    "Postcode": "6062",
    "State": "WA",
    "Email": "admin@paswa.org.au",
    "Phone": "08 9275 5388",
    "PhoneAsE164": null,
    "Fax": "08 9735 3461",
    "Website": "www.perthcatholic.org.au/agencies-services/index.cfm?loadref=18",
    "Lng": "115.9115370",
    "Lat": "-31.8826100",
    "Distance": "0m"
  }, {
    "Id": 5370,
    "Name": "Citizen Advocacy Perth West Inc",
    "Category": "Intellectual disability",
    "StreetAddress": "Unit 2A  28 Guthrie Street",
    "Suburb": "OSBORNE PARK",
    "Postcode": "6017",
    "State": "WA",
    "Email": "admin@capw.org.au",
    "Phone": "08 9445 9991",
    "PhoneAsE164": null,
    "Fax": "08 9445 1260",
    "Website": "www.capw.org.au",
    "Lng": "115.8117173",
    "Lat": "-31.9023678",
    "Distance": "0m"
  }, {
    "Id": 5372,
    "Name": "Ethnic Disability Advocacy Centre                                          Subiaco (Head Office)",
    "Category": "People from Diverse Cultural & Ling. Backgrounds",
    "StreetAddress": "320 Rokeby Road",
    "Suburb": "SUBIACO",
    "Postcode": "6008",
    "State": "WA",
    "Email": "admin@edac.org.au",
    "Phone": "1800 659 921",
    "PhoneAsE164": null,
    "Fax": "08 9388 7433",
    "Website": "www.edac.org.au",
    "Lng": "115.8242110",
    "Lat": "-31.9537720",
    "Distance": "0m"
  }, {
    "Id": 5373,
    "Name": "Ethnic Disability Advocacy Centre                                           Carnarvon",
    "Category": "People from Diverse Cultural & Ling. Backgrounds",
    "StreetAddress": "Lotteries House Inc, 1 Camel Lane",
    "Suburb": "CARNARVON",
    "Postcode": "6701",
    "State": "WA",
    "Email": "admin@edac.org.au",
    "Phone": "1800 659 921",
    "PhoneAsE164": null,
    "Fax": "08 9388 7433",
    "Website": "www.edac.org.au",
    "Lng": "113.656227",
    "Lat": "-24.883777",
    "Distance": "0m"
  }, {
    "Id": 5374,
    "Name": "Ethnic Disability Advocacy Centre                                          Broome",
    "Category": "All People with Disability",
    "StreetAddress": "2 Dora Street,",
    "Suburb": "BROOME",
    "Postcode": "6725",
    "State": "WA",
    "Email": "admin@edac.org.au",
    "Phone": "08 9192 7898",
    "PhoneAsE164": null,
    "Fax": "08 9388 7433",
    "Website": "www.edac.org.au",
    "Lng": "122.2309299",
    "Lat": "-17.9617923",
    "Distance": "0m"
  }, {
    "Id": 5375,
    "Name": "Midland Information Debt & Legal Advocacy Service                       ",
    "Category": "All People with Disability",
    "StreetAddress": "4 / 8-12 Stafford Street",
    "Suburb": "MIDLAND",
    "Postcode": "6056",
    "State": "WA",
    "Email": "admin@midlas.org.au",
    "Phone": "08 9250 2123",
    "PhoneAsE164": null,
    "Fax": "08 9274 4115",
    "Website": "www.midlas.org.au/",
    "Lng": "116.0049390",
    "Lat": "-31.8883990",
    "Distance": "0m"
  }, {
    "Id": 5376,
    "Name": "People with Disabilities (WA) Inc  Nedlands (Head Office)",
    "Category": "All People with Disability",
    "StreetAddress": "Oasis Lotteries House,<br />Suite 1 / 37 Hampden Road",
    "Suburb": "NEDLANDS",
    "Postcode": "6009",
    "State": "WA",
    "Email": "info@pwdwa.org",
    "Phone": "1800 193 331",
    "PhoneAsE164": null,
    "Fax": "08 9386 1011",
    "Website": "www.pwdwa.org",
    "Lng": "115.8131540",
    "Lat": "-31.9734340",
    "Distance": "0m"
  }, {
    "Id": 5377,
    "Name": "People with Disabilities (WA) Inc Mandurah",
    "Category": "All People with Disability",
    "StreetAddress": "Suite 1/63 Ormsby Tce",
    "Suburb": "MANDURAH",
    "Postcode": "6210",
    "State": "WA",
    "Email": "info@pwdwa.org",
    "Phone": "1800193331",
    "PhoneAsE164": null,
    "Fax": "08 9386 1011",
    "Website": "www.pwdwa.org",
    "Lng": "115.7202380",
    "Lat": "-32.5259780",
    "Distance": "0m"
  }, {
    "Id": 5378,
    "Name": "Sussex Street Community Law Service Inc                                   East Victoria Park (Head Office)",
    "Category": "All People with Disability",
    "StreetAddress": "29 Sussex Street",
    "Suburb": "EAST VICTORIA PARK",
    "Postcode": "6101",
    "State": "WA",
    "Email": "sscls@sscls.asn.au",
    "Phone": "1300 648 655",
    "PhoneAsE164": null,
    "Fax": "08 9470 1805",
    "Website": "www.sscls.asn.au",
    "Lng": "115.8994380",
    "Lat": "-31.9843870",
    "Distance": "0m"
  }, {
    "Id": 5379,
    "Name": "Sussex Street Community Law Service Inc                                   Albany",
    "Category": "All People with Disability",
    "StreetAddress": "Albany Community Legal Centre, 125 Grey Street West",
    "Suburb": "ALBANY",
    "Postcode": "6330",
    "State": "WA",
    "Email": "sscls@sscls.asn.au",
    "Phone": "1300 648 655",
    "PhoneAsE164": null,
    "Fax": "08 9470 1805",
    "Website": "www.sscls.asn.au",
    "Lng": "117.882508490",
    "Lat": "-35.024150700",
    "Distance": "0m"
  }, {
    "Id": 5380,
    "Name": "Sussex Street Community Law Service Inc                                   Geraldton",
    "Category": "All People with Disability",
    "StreetAddress": "Geraldton Resource Centre, 114 Sanford Street",
    "Suburb": "GERALDTON",
    "Postcode": "6530",
    "State": "WA",
    "Email": "sscls@sscls.asn.au",
    "Phone": "1300 648 655",
    "PhoneAsE164": null,
    "Fax": "08 9470 1805",
    "Website": "www.sscls.asn.au",
    "Lng": "114.609064310",
    "Lat": "-28.776775960",
    "Distance": "0m"
  }, {
    "Id": 5381,
    "Name": "Sussex Street Community Law Service Inc                                   Kalgoorlie",
    "Category": "All People with Disability",
    "StreetAddress": "Goldfields Community Legal Centre Inc, 23 Maritana Street",
    "Suburb": "KALGOORLIE",
    "Postcode": "6430",
    "State": "WA",
    "Email": "sscls@sscls.asn.au",
    "Phone": "1300 648 655",
    "PhoneAsE164": null,
    "Fax": "08 9470 1805",
    "Website": "www.sscls.asn.au",
    "Lng": "121.4678940",
    "Lat": "-30.7404310",
    "Distance": "0m"
  }, {
    "Id": 5382,
    "Name": "UnitingCare West",
    "Category": "All People with Disability",
    "StreetAddress": "16 Sunbury Road",
    "Suburb": "VICTORIA PARK ",
    "Postcode": "6100",
    "State": "WA",
    "Email": "admin@unitingcarewest.org.au",
    "Phone": "1300 663 298",
    "PhoneAsE164": null,
    "Fax": "1300 663 528",
    "Website": "www.unitingcarewest.org.au",
    "Lng": "115.9003103",
    "Lat": "-31.9717190",
    "Distance": "0m"
  }, {
    "Id": 6126,
    "Name": "Disability Advocacy NSW (Nepean Blue Mountains)",
    "Category": "External Merits Review – Support Component",
    "StreetAddress": "127 Lethbridge Street",
    "Suburb": "Penrith",
    "Postcode": "2750",
    "State": "NSW",
    "Email": "newcastle@da.org.au",
    "Phone": "1300 365 085",
    "PhoneAsE164": null,
    "Fax": "02 4927 0114",
    "Website": "http://da.org.au/ndis/",
    "Lng": "150.6978823",
    "Lat": "-33.7560415",
    "Distance": "0m"
  }, {
    "Id": 6127,
    "Name": "Brain Injury NT",
    "Category": "External Merits Review – Support Component",
    "StreetAddress": "67 Paterson St",
    "Suburb": "Tennant Creek",
    "Postcode": "0860",
    "State": "NT",
    "Email": "info@binsa.org",
    "Phone": "1300 733 049",
    "PhoneAsE164": null,
    "Fax": "08 8211 8164",
    "Website": "http://braininjurysa.org.au",
    "Lng": "134.190862",
    "Lat": "-19.645627",
    "Distance": "0m"
  }]
